{
    "buildings": [
      {
        "id": 1,
        "address": {
          "street": "Kulas Light",
          "suite": "Apt. 556",
          "city": "Gwenborough",
          "zipcode": "92998-3874",
          "geo": {
            "lat": "-37.3159",
            "lng": "81.1496"
          }
        },
        "type": "apartment",
        "name": "Appartamento un sacco bello",
        "description": "Delizioso appartamento"
      },
      {
        "id": 2,
        "address": {
          "street": "Victor Plains",
          "suite": "Suite 879",
          "city": "Wisokyburgh",
          "zipcode": "90566-7771",
          "geo": {
            "lat": "-43.9509",
            "lng": "-34.4618"
          }
        },
        "type": "terraced house",
        "name": "Villa Arzilla",
        "description": "Tanto movimentata, ma in un contesto tranquillo"
      },
      {
        "id": 3,
        "address": {
          "street": "Douglas Extension",
          "suite": "Suite 847",
          "city": "McKenziehaven",
          "zipcode": "59590-4157",
          "geo": {
            "lat": "-68.6102",
            "lng": "-47.0653"
          }
        },
        "type": "apartment",
        "name": "Appartamento un sacco brutto",
        "description": "Cade a pezzi, ma che te frega?"
      }
    ]
  }